{"subzones":[{"subzone":{"id":488,"name":"Aaya Nagar","name_verbose":"Aaya Nagar","param":"subzone_id","city_id":"1","city_name":"New Delhi","zone_id":3,"latitude":"28.4719900000","longitude":"77.1326800000"}},{"subzone":{"id":316,"name":"Alaknanda","name_verbose":"Alaknanda","param":"subzone_id","city_id":"1","city_name":"New Delhi","zone_id":3,"latitude":"28.5275700000","longitude":"77.2511800000"}},{"subzone":{"id":208,"name":"Alipur","name_verbose":"Alipur","param":"subzone_id","city_id":"1","city_name":"New Delhi","zone_id":5,"latitude":"28.7972000000","longitude":"77.1340000000"}},{"subzone":{"id":671,"name":"Ambedkar Road","name_verbose":"Ambedkar Road, Ghaziabad","param":"subzone_id","city_id":"1","city_name":"Ghaziabad","zone_id":600,"latitude":"28.6659240000","longitude":"77.4337220000"}},{"subzone":{"id":647,"name":"Ambience Mall","name_verbose":"Ambience Mall, Gurgaon","param":"subzone_id","city_id":"1","city_name":"Gurgaon","zone_id":2,"latitude":"28.5040530000","longitude":"77.0970480000"}},{"subzone":{"id":8,"name":"Anand Lok","name_verbose":"Anand Lok","param":"subzone_id","city_id":"1","city_name":"New Delhi","zone_id":3,"latitude":"28.5571300000","longitude":"77.2188600000"}},{"subzone":{"id":9,"name":"Anand Niketan","name_verbose":"Anand Niketan","param":"subzone_id","city_id":"1","city_name":"New Delhi","zone_id":3,"latitude":"28.5791800000","longitude":"77.1644700000"}},{"subzone":{"id":290,"name":"Anand Vihar","name_verbose":"Anand Vihar","param":"subzone_id","city_id":"1","city_name":"New Delhi","zone_id":6,"latitude":"28.6487200000","longitude":"77.3075650000"}},{"subzone":{"id":308,"name":"Ardee City","name_verbose":"Ardee City","param":"subzone_id","city_id":"1","city_name":"Gurgaon","zone_id":2,"latitude":"28.4397000000","longitude":"77.0800740000"}},{"subzone":{"id":98,"name":"Asaf Ali Road","name_verbose":"Asaf Ali Road","param":"subzone_id","city_id":"1","city_name":"New Delhi","zone_id":4,"latitude":"28.6408930000","longitude":"77.2360280000"}},{"subzone":{"id":209,"name":"Ashok Vihar Phase 1","name_verbose":"Ashok Vihar Phase 1","param":"subzone_id","city_id":"1","city_name":"New Delhi","zone_id":5,"latitude":"28.6915100000","longitude":"77.1665080000"}},{"subzone":{"id":674,"name":"Ashok Vihar Phase 2","name_verbose":"Ashok Vihar Phase 2","param":"subzone_id","city_id":"1","city_name":"New Delhi","zone_id":5,"latitude":"28.6958050000","longitude":"77.1761940000"}},{"subzone":{"id":675,"name":"Ashok Vihar Phase 3","name_verbose":"Ashok Vihar Phase 3","param":"subzone_id","city_id":"1","city_name":"New Delhi","zone_id":5,"latitude":"28.6874310000","longitude":"77.1815910000"}},{"subzone":{"id":100,"name":"Aurangzeb Road","name_verbose":"Aurangzeb Road","param":"subzone_id","city_id":"1","city_name":"New Delhi","zone_id":4,"latitude":"28.5995560000","longitude":"77.2152670000"}},{"subzone":{"id":12,"name":"Aurobindo Marg","name_verbose":"Aurobindo Marg","param":"subzone_id","city_id":"1","city_name":"New Delhi","zone_id":3,"latitude":"28.5559390000","longitude":"77.2061640000"}},{"subzone":{"id":233,"name":"Azad Market","name_verbose":"Azad Market","param":"subzone_id","city_id":"1","city_name":"New Delhi","zone_id":6,"latitude":"28.6440400000","longitude":"77.2352200000"}},{"subzone":{"id":687,"name":"Azadpur","name_verbose":"Azadpur","param":"subzone_id","city_id":"1","city_name":"New Delhi","zone_id":5,"latitude":"28.7127560000","longitude":"77.1733710000"}},{"subzone":{"id":504,"name":"Badarpur Border","name_verbose":"Badarpur Border","param":"subzone_id","city_id":"1","city_name":"Faridabad","zone_id":501,"latitude":"28.4960450000","longitude":"77.3041800000"}},{"subzone":{"id":505,"name":"Badkal Lake","name_verbose":"Badkal Lake","param":"subzone_id","city_id":"1","city_name":"Faridabad","zone_id":501,"latitude":"28.4106550000","longitude":"77.2873300000"}},{"subzone":{"id":506,"name":"Ballabhgarh","name_verbose":"Ballabhgarh","param":"subzone_id","city_id":"1","city_name":"Faridabad","zone_id":501,"latitude":"28.3435700000","longitude":"77.3202320000"}},{"subzone":{"id":102,"name":"Barakhamba Road","name_verbose":"Barakhamba Road","param":"subzone_id","city_id":"1","city_name":"New Delhi","zone_id":4,"latitude":"28.6280000000","longitude":"77.2278800000"}},{"subzone":{"id":14,"name":"Bhikaji Cama Place","name_verbose":"Bhikaji Cama Place","param":"subzone_id","city_id":"1","city_name":"New Delhi","zone_id":3,"latitude":"28.5680000000","longitude":"77.1857300000"}},{"subzone":{"id":15,"name":"Chanakyapuri","name_verbose":"Chanakyapuri","param":"subzone_id","city_id":"1","city_name":"New Delhi","zone_id":3,"latitude":"28.5938100000","longitude":"77.1866400000"}},{"subzone":{"id":232,"name":"Chander Nagar","name_verbose":"Chander Nagar, Delhi","param":"subzone_id","city_id":"1","city_name":"New Delhi","zone_id":6,"latitude":"28.6525550000","longitude":"77.2800100000"}},{"subzone":{"id":610,"name":"Chander Nagar","name_verbose":"Chander Nagar, Ghaziabad","param":"subzone_id","city_id":"1","city_name":"Ghaziabad","zone_id":600,"latitude":"28.6652110000","longitude":"77.3305750000"}},{"subzone":{"id":210,"name":"Chandni Chowk","name_verbose":"Chandni Chowk","param":"subzone_id","city_id":"1","city_name":"New Delhi","zone_id":5,"latitude":"28.6561400000","longitude":"77.2304800000"}},{"subzone":{"id":509,"name":"Charmwood Village","name_verbose":"Charmwood Village","param":"subzone_id","city_id":"1","city_name":"Faridabad","zone_id":501,"latitude":"28.4937260000","longitude":"77.2943680000"}},{"subzone":{"id":211,"name":"Chawri Bazar","name_verbose":"Chawri Bazar","param":"subzone_id","city_id":"1","city_name":"New Delhi","zone_id":5,"latitude":"28.6508100000","longitude":"77.2316400000"}},{"subzone":{"id":693,"name":"Chhatarpur","name_verbose":"Chhatarpur","param":"subzone_id","city_id":"1","city_name":"New Delhi","zone_id":3,"latitude":"28.4890600000","longitude":"77.1773970000"}},{"subzone":{"id":16,"name":"Chittaranjan Park","name_verbose":"Chittaranjan Park","param":"subzone_id","city_id":"1","city_name":"New Delhi","zone_id":3,"latitude":"28.5380900000","longitude":"77.2489700000"}},{"subzone":{"id":212,"name":"Civil Lines","name_verbose":"Civil Lines","param":"subzone_id","city_id":"1","city_name":"New Delhi","zone_id":5,"latitude":"28.6745400000","longitude":"77.2220100000"}},{"subzone":{"id":104,"name":"Connaught Place","name_verbose":"Connaught Place","param":"subzone_id","city_id":"1","city_name":"New Delhi","zone_id":4,"latitude":"28.6328320000","longitude":"77.2196880000"}},{"subzone":{"id":605,"name":"Crossing Republik","name_verbose":"Crossing Republik","param":"subzone_id","city_id":"1","city_name":"Ghaziabad","zone_id":600,"latitude":"28.6311510000","longitude":"77.4330730000"}},{"subzone":{"id":697,"name":"DLF Cyber City","name_verbose":"DLF Cyber City","param":"subzone_id","city_id":"1","city_name":"Gurgaon","zone_id":2,"latitude":"28.4945870000","longitude":"77.0895950000"}},{"subzone":{"id":297,"name":"DLF Phase 1","name_verbose":"DLF Phase 1","param":"subzone_id","city_id":"1","city_name":"Gurgaon","zone_id":2,"latitude":"28.4716360000","longitude":"77.0984902000"}},{"subzone":{"id":298,"name":"DLF Phase 2","name_verbose":"DLF Phase 2","param":"subzone_id","city_id":"1","city_name":"Gurgaon","zone_id":2,"latitude":"28.4842470000","longitude":"77.0871550000"}},{"subzone":{"id":299,"name":"DLF Phase 3","name_verbose":"DLF Phase 3","param":"subzone_id","city_id":"1","city_name":"Gurgaon","zone_id":2,"latitude":"28.4909390000","longitude":"77.1002870000"}},{"subzone":{"id":300,"name":"DLF Phase 4","name_verbose":"DLF Phase 4","param":"subzone_id","city_id":"1","city_name":"Gurgaon","zone_id":2,"latitude":"28.4670360000","longitude":"77.0851370000"}},{"subzone":{"id":301,"name":"DLF Phase 5","name_verbose":"DLF Phase 5","param":"subzone_id","city_id":"1","city_name":"Gurgaon","zone_id":2,"latitude":"28.4570145000","longitude":"77.0942402000"}},{"subzone":{"id":213,"name":"Daryaganj","name_verbose":"Daryaganj","param":"subzone_id","city_id":"1","city_name":"New Delhi","zone_id":5,"latitude":"28.6449000000","longitude":"77.2420800000"}},{"subzone":{"id":510,"name":"Dayal Bagh","name_verbose":"Dayal Bagh","param":"subzone_id","city_id":"1","city_name":"Faridabad","zone_id":501,"latitude":"28.4923190000","longitude":"77.2973590000"}},{"subzone":{"id":18,"name":"Defence Colony","name_verbose":"Defence Colony","param":"subzone_id","city_id":"1","city_name":"New Delhi","zone_id":3,"latitude":"28.5726700000","longitude":"77.2324700000"}},{"subzone":{"id":264,"name":"Delhi Cantt.","name_verbose":"Delhi Cantt.","param":"subzone_id","city_id":"1","city_name":"New Delhi","zone_id":7,"latitude":"28.5958403000","longitude":"77.1274645000"}},{"subzone":{"id":214,"name":"Delhi University-GTB Nagar","name_verbose":"Delhi University-GTB Nagar","param":"subzone_id","city_id":"1","city_name":"New Delhi","zone_id":5,"latitude":"28.6929730000","longitude":"77.2052350000"}},{"subzone":{"id":230,"name":"Dilshad Garden","name_verbose":"Dilshad Garden","param":"subzone_id","city_id":"1","city_name":"New Delhi","zone_id":6,"latitude":"28.6808300000","longitude":"77.3169400000"}},{"subzone":{"id":21,"name":"Dr. Zakir Hussain Marg","name_verbose":"Dr. Zakir Hussain Marg","param":"subzone_id","city_id":"1","city_name":"New Delhi","zone_id":4,"latitude":"28.6014030000","longitude":"77.2380370000"}},{"subzone":{"id":266,"name":"Dwarka","name_verbose":"Dwarka","param":"subzone_id","city_id":"1","city_name":"New Delhi","zone_id":7,"latitude":"28.5932640000","longitude":"77.0464320000"}},{"subzone":{"id":281,"name":"East Patel Nagar","name_verbose":"East Patel Nagar","param":"subzone_id","city_id":"1","city_name":"New Delhi","zone_id":7,"latitude":"28.6497180000","longitude":"77.1759370000"}},{"subzone":{"id":22,"name":"East of Kailash","name_verbose":"East of Kailash","param":"subzone_id","city_id":"1","city_name":"New Delhi","zone_id":3,"latitude":"28.5575000000","longitude":"77.2500800000"}},{"subzone":{"id":106,"name":"Feroze Shah Road","name_verbose":"Feroze Shah Road","param":"subzone_id","city_id":"1","city_name":"New Delhi","zone_id":4,"latitude":"28.5358990000","longitude":"77.0590680000"}},{"subzone":{"id":25,"name":"Friends Colony","name_verbose":"Friends Colony","param":"subzone_id","city_id":"1","city_name":"New Delhi","zone_id":3,"latitude":"28.5684840000","longitude":"77.2643890000"}},{"subzone":{"id":216,"name":"GTB Nagar","name_verbose":"GTB Nagar","param":"subzone_id","city_id":"1","city_name":"New Delhi","zone_id":5,"latitude":"28.6947500000","longitude":"77.2050800000"}},{"subzone":{"id":235,"name":"Geeta Colony","name_verbose":"Geeta Colony","param":"subzone_id","city_id":"1","city_name":"New Delhi","zone_id":6,"latitude":"28.6519200000","longitude":"77.2717500000"}},{"subzone":{"id":26,"name":"Geetanjali Enclave","name_verbose":"Geetanjali Enclave","param":"subzone_id","city_id":"1","city_name":"New Delhi","zone_id":3,"latitude":"28.5304700000","longitude":"77.2024600000"}},{"subzone":{"id":107,"name":"Gole Market","name_verbose":"Gole Market","param":"subzone_id","city_id":"1","city_name":"New Delhi","zone_id":4,"latitude":"28.6336300000","longitude":"77.2072680000"}},{"subzone":{"id":327,"name":"Golf Course","name_verbose":"Golf Course","param":"subzone_id","city_id":"1","city_name":"Noida","zone_id":1,"latitude":"28.5641900000","longitude":"77.3453100000"}},{"subzone":{"id":310,"name":"Golf Course Road","name_verbose":"Golf Course Road","param":"subzone_id","city_id":"1","city_name":"Gurgaon","zone_id":2,"latitude":"28.4497230000","longitude":"77.0995410000"}},{"subzone":{"id":613,"name":"Govind Puram","name_verbose":"Govind Puram","param":"subzone_id","city_id":"1","city_name":"Ghaziabad","zone_id":600,"latitude":"28.6854300000","longitude":"77.4875590000"}},{"subzone":{"id":27,"name":"Greater Kailash (GK) 1","name_verbose":"Greater Kailash (GK) 1","param":"subzone_id","city_id":"1","city_name":"New Delhi","zone_id":3,"latitude":"28.5504200000","longitude":"77.2354100000"}},{"subzone":{"id":490,"name":"Greater Kailash (GK) 2","name_verbose":"Greater Kailash (GK) 2","param":"subzone_id","city_id":"1","city_name":"New Delhi","zone_id":3,"latitude":"28.5341200000","longitude":"77.2421800000"}},{"subzone":{"id":491,"name":"Greater Kailash (GK) 3","name_verbose":"Greater Kailash (GK) 3","param":"subzone_id","city_id":"1","city_name":"New Delhi","zone_id":3,"latitude":"28.5375700000","longitude":"77.2361000000"}},{"subzone":{"id":636,"name":"Greater Noida","name_verbose":"Greater Noida","param":"subzone_id","city_id":"1","city_name":"Noida","zone_id":1,"latitude":"28.4777450000","longitude":"77.5030520000"}},{"subzone":{"id":28,"name":"Green Park","name_verbose":"Green Park","param":"subzone_id","city_id":"1","city_name":"New Delhi","zone_id":3,"latitude":"28.5582250000","longitude":"77.2043020000"}},{"subzone":{"id":215,"name":"Gujranwala Town","name_verbose":"Gujranwala Town","param":"subzone_id","city_id":"1","city_name":"New Delhi","zone_id":5,"latitude":"28.6996870000","longitude":"77.1917720000"}},{"subzone":{"id":31,"name":"Hauz Khas","name_verbose":"Hauz Khas","param":"subzone_id","city_id":"1","city_name":"New Delhi","zone_id":3,"latitude":"28.5495300000","longitude":"77.2066800000"}},{"subzone":{"id":690,"name":"Hauz Khas Village","name_verbose":"Hauz Khas Village","param":"subzone_id","city_id":"1","city_name":"New Delhi","zone_id":3,"latitude":"28.5542540000","longitude":"77.1944180000"}},{"subzone":{"id":32,"name":"IGI Airport","name_verbose":"IGI Airport","param":"subzone_id","city_id":"1","city_name":"New Delhi","zone_id":3,"latitude":"28.5610420000","longitude":"77.1219210000"}},{"subzone":{"id":236,"name":"IP Extension","name_verbose":"IP Extension","param":"subzone_id","city_id":"1","city_name":"New Delhi","zone_id":6,"latitude":"28.6288900000","longitude":"77.3035500000"}},{"subzone":{"id":109,"name":"ITO","name_verbose":"ITO","param":"subzone_id","city_id":"1","city_name":"New Delhi","zone_id":4,"latitude":"28.6273500000","longitude":"77.2433000000"}},{"subzone":{"id":267,"name":"Inderlok","name_verbose":"Inderlok","param":"subzone_id","city_id":"1","city_name":"New Delhi","zone_id":7,"latitude":"28.6719770000","longitude":"77.1732670000"}},{"subzone":{"id":686,"name":"India Gate","name_verbose":"India Gate","param":"subzone_id","city_id":"1","city_name":"New Delhi","zone_id":4,"latitude":"28.6126390000","longitude":"77.2311790000"}},{"subzone":{"id":601,"name":"Indirapuram","name_verbose":"Indirapuram","param":"subzone_id","city_id":"1","city_name":"Ghaziabad","zone_id":600,"latitude":"28.6417110000","longitude":"77.3717310000"}},{"subzone":{"id":514,"name":"Indraprastha Colony","name_verbose":"Indraprastha Colony","param":"subzone_id","city_id":"1","city_name":"Faridabad","zone_id":501,"latitude":"28.4525390000","longitude":"77.3177860000"}},{"subzone":{"id":33,"name":"JNU","name_verbose":"JNU","param":"subzone_id","city_id":"1","city_name":"New Delhi","zone_id":3,"latitude":"28.5486520000","longitude":"77.1722450000"}},{"subzone":{"id":268,"name":"Jail Road","name_verbose":"Jail Road","param":"subzone_id","city_id":"1","city_name":"New Delhi","zone_id":7,"latitude":"28.6331880000","longitude":"77.0978680000"}},{"subzone":{"id":217,"name":"Jama Masjid","name_verbose":"Jama Masjid","param":"subzone_id","city_id":"1","city_name":"New Delhi","zone_id":5,"latitude":"28.6500100000","longitude":"77.2354900000"}},{"subzone":{"id":269,"name":"Janakpuri","name_verbose":"Janakpuri","param":"subzone_id","city_id":"1","city_name":"New Delhi","zone_id":7,"latitude":"28.6195620000","longitude":"77.0881460000"}},{"subzone":{"id":35,"name":"Jangpura","name_verbose":"Jangpura","param":"subzone_id","city_id":"1","city_name":"New Delhi","zone_id":3,"latitude":"28.5820060000","longitude":"77.2474480000"}},{"subzone":{"id":111,"name":"Janpath","name_verbose":"Janpath","param":"subzone_id","city_id":"1","city_name":"New Delhi","zone_id":4,"latitude":"28.6286950000","longitude":"77.2194400000"}},{"subzone":{"id":648,"name":"Jasola","name_verbose":"Jasola","param":"subzone_id","city_id":"1","city_name":"New Delhi","zone_id":3,"latitude":"28.5440410000","longitude":"77.2875310000"}},{"subzone":{"id":34,"name":"Jor Bagh","name_verbose":"Jor Bagh","param":"subzone_id","city_id":"1","city_name":"New Delhi","zone_id":3,"latitude":"28.5879400000","longitude":"77.2160800000"}},{"subzone":{"id":497,"name":"Kailash Colony","name_verbose":"Kailash Colony","param":"subzone_id","city_id":"1","city_name":"New Delhi","zone_id":3,"latitude":"28.5531500000","longitude":"77.2420800000"}},{"subzone":{"id":36,"name":"Kalkaji","name_verbose":"Kalkaji","param":"subzone_id","city_id":"1","city_name":"New Delhi","zone_id":3,"latitude":"28.5371340000","longitude":"77.2601260000"}},{"subzone":{"id":220,"name":"Kamla Nagar","name_verbose":"Kamla Nagar","param":"subzone_id","city_id":"1","city_name":"New Delhi","zone_id":5,"latitude":"28.6818600000","longitude":"77.2026000000"}},{"subzone":{"id":78077,"name":"Kapashera","name_verbose":"Kapashera","param":"subzone_id","city_id":"1","city_name":"New Delhi","zone_id":3,"latitude":"28.5168390000","longitude":"77.0790400000"}},{"subzone":{"id":270,"name":"Karampura","name_verbose":"Karampura","param":"subzone_id","city_id":"1","city_name":"New Delhi","zone_id":7,"latitude":"28.6647970000","longitude":"77.1483130000"}},{"subzone":{"id":72134,"name":"Karkardooma","name_verbose":"Karkardooma","param":"subzone_id","city_id":"1","city_name":"New Delhi","zone_id":6,"latitude":"28.6538010000","longitude":"77.3023300000"}},{"subzone":{"id":271,"name":"Karol Bagh","name_verbose":"Karol Bagh","param":"subzone_id","city_id":"1","city_name":"New Delhi","zone_id":7,"latitude":"28.6520600000","longitude":"77.1888100000"}},{"subzone":{"id":221,"name":"Kashmiri Gate","name_verbose":"Kashmiri Gate","param":"subzone_id","city_id":"1","city_name":"New Delhi","zone_id":5,"latitude":"28.6659868000","longitude":"77.2295042000"}},{"subzone":{"id":632,"name":"Kaushambi","name_verbose":"Kaushambi","param":"subzone_id","city_id":"1","city_name":"Ghaziabad","zone_id":600,"latitude":"28.6402800000","longitude":"77.3238800000"}},{"subzone":{"id":616,"name":"Kavi Nagar","name_verbose":"Kavi Nagar","param":"subzone_id","city_id":"1","city_name":"Ghaziabad","zone_id":600,"latitude":"28.6670180000","longitude":"77.4496220000"}},{"subzone":{"id":38,"name":"Khan Market","name_verbose":"Khan Market","param":"subzone_id","city_id":"1","city_name":"New Delhi","zone_id":4,"latitude":"28.6004300000","longitude":"77.2267600000"}},{"subzone":{"id":694,"name":"Khanpur","name_verbose":"Khanpur","param":"subzone_id","city_id":"1","city_name":"New Delhi","zone_id":3,"latitude":"28.5123900000","longitude":"77.2261540000"}},{"subzone":{"id":39,"name":"Khel Gaon Marg","name_verbose":"Khel Gaon Marg","param":"subzone_id","city_id":"1","city_name":"New Delhi","zone_id":3,"latitude":"28.5559395000","longitude":"77.2166935000"}},{"subzone":{"id":272,"name":"Kirti Nagar","name_verbose":"Kirti Nagar","param":"subzone_id","city_id":"1","city_name":"New Delhi","zone_id":7,"latitude":"28.6523900000","longitude":"77.1412500000"}},{"subzone":{"id":237,"name":"Krishna Nagar","name_verbose":"Krishna Nagar","param":"subzone_id","city_id":"1","city_name":"New Delhi","zone_id":6,"latitude":"28.6590500000","longitude":"77.2821000000"}},{"subzone":{"id":40,"name":"Lajpat Nagar 1","name_verbose":"Lajpat Nagar 1","param":"subzone_id","city_id":"1","city_name":"New Delhi","zone_id":3,"latitude":"28.5760600000","longitude":"77.2423100000"}},{"subzone":{"id":492,"name":"Lajpat Nagar 2","name_verbose":"Lajpat Nagar 2","param":"subzone_id","city_id":"1","city_name":"New Delhi","zone_id":3,"latitude":"28.5700500000","longitude":"77.2432900000"}},{"subzone":{"id":493,"name":"Lajpat Nagar 3","name_verbose":"Lajpat Nagar 3","param":"subzone_id","city_id":"1","city_name":"New Delhi","zone_id":3,"latitude":"28.5671200000","longitude":"77.2394500000"}},{"subzone":{"id":639,"name":"Lajpat Nagar 4","name_verbose":"Lajpat Nagar 4","param":"subzone_id","city_id":"1","city_name":"New Delhi","zone_id":3,"latitude":"28.5646980000","longitude":"77.2433500000"}},{"subzone":{"id":273,"name":"Lawrence Road","name_verbose":"Lawrence Road","param":"subzone_id","city_id":"1","city_name":"New Delhi","zone_id":5,"latitude":"28.6867850000","longitude":"77.1538880000"}},{"subzone":{"id":238,"name":"Laxmi Nagar","name_verbose":"Laxmi Nagar","param":"subzone_id","city_id":"1","city_name":"New Delhi","zone_id":6,"latitude":"28.6362280000","longitude":"77.2784560000"}},{"subzone":{"id":42,"name":"Lodhi Colony","name_verbose":"Lodhi Colony","param":"subzone_id","city_id":"1","city_name":"New Delhi","zone_id":4,"latitude":"28.5844100000","longitude":"77.2247000000"}},{"subzone":{"id":43,"name":"Lodhi Road","name_verbose":"Lodhi Road","param":"subzone_id","city_id":"1","city_name":"New Delhi","zone_id":4,"latitude":"28.5914050000","longitude":"77.2292480000"}},{"subzone":{"id":618,"name":"Loni","name_verbose":"Loni","param":"subzone_id","city_id":"1","city_name":"Ghaziabad","zone_id":600,"latitude":"28.6811000000","longitude":"77.3810540000"}},{"subzone":{"id":302,"name":"MG Road","name_verbose":"MG Road, Gurgaon","param":"subzone_id","city_id":"1","city_name":"Gurgaon","zone_id":2,"latitude":"28.4802110000","longitude":"77.0820540000"}},{"subzone":{"id":52,"name":"MG Road","name_verbose":"MG Road, Delhi","param":"subzone_id","city_id":"1","city_name":"New Delhi","zone_id":3,"latitude":"28.4872210000","longitude":"77.1332880000"}},{"subzone":{"id":45,"name":"Mahipalpur","name_verbose":"Mahipalpur","param":"subzone_id","city_id":"1","city_name":"New Delhi","zone_id":3,"latitude":"28.5478800000","longitude":"77.1226900000"}},{"subzone":{"id":113,"name":"Majnu ka Tila","name_verbose":"Majnu ka Tila","param":"subzone_id","city_id":"1","city_name":"New Delhi","zone_id":5,"latitude":"28.7009900000","longitude":"77.2270700000"}},{"subzone":{"id":48,"name":"Malviya Nagar","name_verbose":"Malviya Nagar","param":"subzone_id","city_id":"1","city_name":"New Delhi","zone_id":3,"latitude":"28.5345200000","longitude":"77.2119300000"}},{"subzone":{"id":115,"name":"Mandi House","name_verbose":"Mandi House","param":"subzone_id","city_id":"1","city_name":"New Delhi","zone_id":4,"latitude":"28.6252189000","longitude":"77.2321486000"}},{"subzone":{"id":116,"name":"Mansingh Road","name_verbose":"Mansingh Road","param":"subzone_id","city_id":"1","city_name":"New Delhi","zone_id":4,"latitude":"28.6042180000","longitude":"77.2243050000"}},{"subzone":{"id":50,"name":"Mathura Road","name_verbose":"Mathura Road","param":"subzone_id","city_id":"1","city_name":"New Delhi","zone_id":3,"latitude":"28.5924350000","longitude":"77.2442310000"}},{"subzone":{"id":519,"name":"Mathura Road","name_verbose":"Mathura Road, Faridabad","param":"subzone_id","city_id":"1","city_name":"Faridabad","zone_id":501,"latitude":"28.4333390000","longitude":"77.3093940000"}},{"subzone":{"id":274,"name":"Mayapuri Phase 1","name_verbose":"Mayapuri Phase 1","param":"subzone_id","city_id":"1","city_name":"New Delhi","zone_id":7,"latitude":"28.6308860000","longitude":"77.1269270000"}},{"subzone":{"id":678,"name":"Mayapuri Phase 2","name_verbose":"Mayapuri Phase 2","param":"subzone_id","city_id":"1","city_name":"New Delhi","zone_id":7,"latitude":"28.6180780000","longitude":"77.1155120000"}},{"subzone":{"id":240,"name":"Mayur Vihar Phase 1","name_verbose":"Mayur Vihar Phase 1","param":"subzone_id","city_id":"1","city_name":"New Delhi","zone_id":6,"latitude":"28.6036760000","longitude":"77.2971600000"}},{"subzone":{"id":679,"name":"Mayur Vihar Phase 2","name_verbose":"Mayur Vihar Phase 2","param":"subzone_id","city_id":"1","city_name":"New Delhi","zone_id":6,"latitude":"28.6181790000","longitude":"77.3001640000"}},{"subzone":{"id":680,"name":"Mayur Vihar Phase 3","name_verbose":"Mayur Vihar Phase 3","param":"subzone_id","city_id":"1","city_name":"New Delhi","zone_id":6,"latitude":"28.6119080000","longitude":"77.3312670000"}},{"subzone":{"id":51,"name":"Mehrauli","name_verbose":"Mehrauli","param":"subzone_id","city_id":"1","city_name":"New Delhi","zone_id":3,"latitude":"28.5146310000","longitude":"77.1798130000"}},{"subzone":{"id":223,"name":"Model Town 1","name_verbose":"Model Town 1","param":"subzone_id","city_id":"1","city_name":"New Delhi","zone_id":5,"latitude":"28.7042070000","longitude":"77.1934330000"}},{"subzone":{"id":672,"name":"Model Town 2","name_verbose":"Model Town 2","param":"subzone_id","city_id":"1","city_name":"New Delhi","zone_id":5,"latitude":"28.7083030000","longitude":"77.1874380000"}},{"subzone":{"id":673,"name":"Model Town 3","name_verbose":"Model Town 3","param":"subzone_id","city_id":"1","city_name":"New Delhi","zone_id":5,"latitude":"28.7084930000","longitude":"77.1846970000"}},{"subzone":{"id":619,"name":"Mohan Nagar","name_verbose":"Mohan Nagar","param":"subzone_id","city_id":"1","city_name":"Ghaziabad","zone_id":600,"latitude":"28.6776620000","longitude":"77.3873840000"}},{"subzone":{"id":53,"name":"Moti Bagh","name_verbose":"Moti Bagh","param":"subzone_id","city_id":"1","city_name":"New Delhi","zone_id":3,"latitude":"28.5836000000","longitude":"77.1767500000"}},{"subzone":{"id":275,"name":"Moti Nagar","name_verbose":"Moti Nagar","param":"subzone_id","city_id":"1","city_name":"New Delhi","zone_id":7,"latitude":"28.6596540000","longitude":"77.1420290000"}},{"subzone":{"id":224,"name":"Mukherjee Nagar","name_verbose":"Mukherjee Nagar","param":"subzone_id","city_id":"1","city_name":"New Delhi","zone_id":5,"latitude":"28.7116000000","longitude":"77.2124500000"}},{"subzone":{"id":54,"name":"Munirka","name_verbose":"Munirka","param":"subzone_id","city_id":"1","city_name":"New Delhi","zone_id":3,"latitude":"28.5539900000","longitude":"77.1724600000"}},{"subzone":{"id":573,"name":"NIT","name_verbose":"NIT, Faridabad","param":"subzone_id","city_id":"1","city_name":"Faridabad","zone_id":501,"latitude":"28.3872470000","longitude":"77.2949980000"}},{"subzone":{"id":276,"name":"Najafgarh","name_verbose":"Najafgarh","param":"subzone_id","city_id":"1","city_name":"New Delhi","zone_id":7,"latitude":"28.6072810000","longitude":"76.9906430000"}},{"subzone":{"id":277,"name":"Nangloi","name_verbose":"Nangloi","param":"subzone_id","city_id":"1","city_name":"New Delhi","zone_id":7,"latitude":"28.6801000000","longitude":"77.0610900000"}},{"subzone":{"id":278,"name":"Naraina","name_verbose":"Naraina","param":"subzone_id","city_id":"1","city_name":"New Delhi","zone_id":7,"latitude":"28.6267700000","longitude":"77.1389600000"}},{"subzone":{"id":279,"name":"Narela","name_verbose":"Narela","param":"subzone_id","city_id":"1","city_name":"New Delhi","zone_id":7,"latitude":"28.8570200000","longitude":"77.0886900000"}},{"subzone":{"id":622,"name":"Nehru Nagar","name_verbose":"Nehru Nagar","param":"subzone_id","city_id":"1","city_name":"Ghaziabad","zone_id":600,"latitude":"28.6596750000","longitude":"77.4390650000"}},{"subzone":{"id":57,"name":"Nehru Place","name_verbose":"Nehru Place","param":"subzone_id","city_id":"1","city_name":"New Delhi","zone_id":3,"latitude":"28.5469910000","longitude":"77.2501960000"}},{"subzone":{"id":58,"name":"Netaji Nagar","name_verbose":"Netaji Nagar","param":"subzone_id","city_id":"1","city_name":"New Delhi","zone_id":3,"latitude":"28.5771600000","longitude":"77.1851300000"}},{"subzone":{"id":73034,"name":"Netaji Subhash Place","name_verbose":"Netaji Subhash Place","param":"subzone_id","city_id":"1","city_name":"New Delhi","zone_id":5,"latitude":"28.6961690000","longitude":"77.1522710000"}},{"subzone":{"id":59,"name":"New Friends Colony","name_verbose":"New Friends Colony","param":"subzone_id","city_id":"1","city_name":"New Delhi","zone_id":3,"latitude":"28.5673500000","longitude":"77.2710800000"}},{"subzone":{"id":61,"name":"Nizamuddin","name_verbose":"Nizamuddin","param":"subzone_id","city_id":"1","city_name":"New Delhi","zone_id":3,"latitude":"28.5899570000","longitude":"77.2462460000"}},{"subzone":{"id":63,"name":"Okhla Phase 1","name_verbose":"Okhla Phase 1","param":"subzone_id","city_id":"1","city_name":"New Delhi","zone_id":3,"latitude":"28.5247070000","longitude":"77.2791770000"}},{"subzone":{"id":681,"name":"Okhla Phase 2","name_verbose":"Okhla Phase 2","param":"subzone_id","city_id":"1","city_name":"New Delhi","zone_id":3,"latitude":"28.5316620000","longitude":"77.2720130000"}},{"subzone":{"id":682,"name":"Okhla Phase 3","name_verbose":"Okhla Phase 3","param":"subzone_id","city_id":"1","city_name":"New Delhi","zone_id":3,"latitude":"28.5503440000","longitude":"77.2673320000"}},{"subzone":{"id":498,"name":"Old Railway Road","name_verbose":"Old Railway Road","param":"subzone_id","city_id":"1","city_name":"Gurgaon","zone_id":2,"latitude":"28.4674990000","longitude":"77.0208170000"}},{"subzone":{"id":119,"name":"Paharganj","name_verbose":"Paharganj","param":"subzone_id","city_id":"1","city_name":"New Delhi","zone_id":4,"latitude":"28.6443860000","longitude":"77.2141540000"}},{"subzone":{"id":64,"name":"Palam","name_verbose":"Palam","param":"subzone_id","city_id":"1","city_name":"New Delhi","zone_id":7,"latitude":"28.5912690000","longitude":"77.0843510000"}},{"subzone":{"id":312,"name":"Palam Vihar","name_verbose":"Palam Vihar","param":"subzone_id","city_id":"1","city_name":"Gurgaon","zone_id":2,"latitude":"28.5067310000","longitude":"77.0345940000"}},{"subzone":{"id":66,"name":"Panchsheel Park","name_verbose":"Panchsheel Park","param":"subzone_id","city_id":"1","city_name":"New Delhi","zone_id":3,"latitude":"28.5431900000","longitude":"77.2141200000"}},{"subzone":{"id":120,"name":"Pandara Road Market","name_verbose":"Pandara Road Market","param":"subzone_id","city_id":"1","city_name":"New Delhi","zone_id":4,"latitude":"28.6086000000","longitude":"77.2291500000"}},{"subzone":{"id":241,"name":"Pandav Nagar","name_verbose":"Pandav Nagar","param":"subzone_id","city_id":"1","city_name":"New Delhi","zone_id":6,"latitude":"28.6182910000","longitude":"77.2822430000"}},{"subzone":{"id":121,"name":"Parliament Street","name_verbose":"Parliament Street","param":"subzone_id","city_id":"1","city_name":"New Delhi","zone_id":4,"latitude":"28.6224650000","longitude":"77.2120650000"}},{"subzone":{"id":280,"name":"Paschim Vihar","name_verbose":"Paschim Vihar","param":"subzone_id","city_id":"1","city_name":"New Delhi","zone_id":7,"latitude":"28.6665360000","longitude":"77.0996200000"}},{"subzone":{"id":242,"name":"Patparganj","name_verbose":"Patparganj","param":"subzone_id","city_id":"1","city_name":"New Delhi","zone_id":6,"latitude":"28.6308080000","longitude":"77.3064500000"}},{"subzone":{"id":282,"name":"Pitampura","name_verbose":"Pitampura","param":"subzone_id","city_id":"1","city_name":"New Delhi","zone_id":5,"latitude":"28.7039890000","longitude":"77.1432500000"}},{"subzone":{"id":122,"name":"Pragati Maidan","name_verbose":"Pragati Maidan","param":"subzone_id","city_id":"1","city_name":"New Delhi","zone_id":4,"latitude":"28.6174900000","longitude":"77.2437100000"}},{"subzone":{"id":225,"name":"Prashant Vihar","name_verbose":"Prashant Vihar","param":"subzone_id","city_id":"1","city_name":"New Delhi","zone_id":5,"latitude":"28.7161000000","longitude":"77.1372600000"}},{"subzone":{"id":623,"name":"Pratap Vihar","name_verbose":"Pratap Vihar","param":"subzone_id","city_id":"1","city_name":"Ghaziabad","zone_id":600,"latitude":"28.6459240000","longitude":"77.4153700000"}},{"subzone":{"id":243,"name":"Preet Vihar","name_verbose":"Preet Vihar","param":"subzone_id","city_id":"1","city_name":"New Delhi","zone_id":6,"latitude":"28.6396360000","longitude":"77.2954950000"}},{"subzone":{"id":283,"name":"Punjabi Bagh","name_verbose":"Punjabi Bagh","param":"subzone_id","city_id":"1","city_name":"New Delhi","zone_id":7,"latitude":"28.6667400000","longitude":"77.1279900000"}},{"subzone":{"id":68,"name":"Qutab Institutional Area","name_verbose":"Qutab Institutional Area","param":"subzone_id","city_id":"1","city_name":"New Delhi","zone_id":3,"latitude":"28.5387250993","longitude":"77.1846628189"}},{"subzone":{"id":69,"name":"R K Puram","name_verbose":"R K Puram","param":"subzone_id","city_id":"1","city_name":"New Delhi","zone_id":3,"latitude":"28.5674610000","longitude":"77.1756310000"}},{"subzone":{"id":70,"name":"Race Course","name_verbose":"Race Course","param":"subzone_id","city_id":"1","city_name":"New Delhi","zone_id":3,"latitude":"28.6004750000","longitude":"77.2044600000"}},{"subzone":{"id":607,"name":"Raj Nagar","name_verbose":"Raj Nagar","param":"subzone_id","city_id":"1","city_name":"Ghaziabad","zone_id":600,"latitude":"28.6807240000","longitude":"77.4457600000"}},{"subzone":{"id":284,"name":"Raja Garden","name_verbose":"Raja Garden","param":"subzone_id","city_id":"1","city_name":"New Delhi","zone_id":7,"latitude":"28.6521300000","longitude":"77.1253300000"}},{"subzone":{"id":624,"name":"Rajendar Nagar","name_verbose":"Rajendar Nagar","param":"subzone_id","city_id":"1","city_name":"Ghaziabad","zone_id":600,"latitude":"28.6801510000","longitude":"77.3631790000"}},{"subzone":{"id":285,"name":"Rajendra Place","name_verbose":"Rajendra Place","param":"subzone_id","city_id":"1","city_name":"New Delhi","zone_id":7,"latitude":"28.6446400000","longitude":"77.1775400000"}},{"subzone":{"id":286,"name":"Rajinder Nagar","name_verbose":"Rajinder Nagar","param":"subzone_id","city_id":"1","city_name":"New Delhi","zone_id":7,"latitude":"28.6413910000","longitude":"77.1857570000"}},{"subzone":{"id":688,"name":"Rajokri","name_verbose":"Rajokri","param":"subzone_id","city_id":"1","city_name":"New Delhi","zone_id":3,"latitude":"28.5144050000","longitude":"77.1085740000"}},{"subzone":{"id":287,"name":"Rajouri Garden","name_verbose":"Rajouri Garden","param":"subzone_id","city_id":"1","city_name":"New Delhi","zone_id":7,"latitude":"28.6463120000","longitude":"77.1207140000"}},{"subzone":{"id":625,"name":"Ramprastha","name_verbose":"Ramprastha","param":"subzone_id","city_id":"1","city_name":"Ghaziabad","zone_id":600,"latitude":"28.6603910000","longitude":"77.3237940000"}},{"subzone":{"id":288,"name":"Rana Pratap Bagh","name_verbose":"Rana Pratap Bagh","param":"subzone_id","city_id":"1","city_name":"New Delhi","zone_id":5,"latitude":"28.6869000000","longitude":"77.1907800000"}},{"subzone":{"id":289,"name":"Rohini","name_verbose":"Rohini","param":"subzone_id","city_id":"1","city_name":"New Delhi","zone_id":5,"latitude":"28.7226290000","longitude":"77.1102780000"}},{"subzone":{"id":485,"name":"SDA","name_verbose":"SDA","param":"subzone_id","city_id":"1","city_name":"New Delhi","zone_id":3,"latitude":"28.5511430000","longitude":"77.2039730000"}},{"subzone":{"id":228,"name":"Sadar Bazar","name_verbose":"Sadar Bazar","param":"subzone_id","city_id":"1","city_name":"Gurgaon","zone_id":2,"latitude":"28.4622400000","longitude":"77.0309400000"}},{"subzone":{"id":72,"name":"Safdarjung","name_verbose":"Safdarjung","param":"subzone_id","city_id":"1","city_name":"New Delhi","zone_id":3,"latitude":"28.5657530000","longitude":"77.1957350000"}},{"subzone":{"id":604,"name":"Sahibabad","name_verbose":"Sahibabad","param":"subzone_id","city_id":"1","city_name":"Ghaziabad","zone_id":600,"latitude":"28.6585570000","longitude":"77.3521500000"}},{"subzone":{"id":524,"name":"Sainik Colony","name_verbose":"Sainik Colony","param":"subzone_id","city_id":"1","city_name":"Faridabad","zone_id":501,"latitude":"28.3984690000","longitude":"77.2791190000"}},{"subzone":{"id":73,"name":"Sainik Farms","name_verbose":"Sainik Farms","param":"subzone_id","city_id":"1","city_name":"New Delhi","zone_id":3,"latitude":"28.5110530000","longitude":"77.2073090000"}},{"subzone":{"id":74,"name":"Saket","name_verbose":"Saket","param":"subzone_id","city_id":"1","city_name":"New Delhi","zone_id":3,"latitude":"28.5246250000","longitude":"77.2134020000"}},{"subzone":{"id":75,"name":"Sardar Patel Marg","name_verbose":"Sardar Patel Marg","param":"subzone_id","city_id":"1","city_name":"New Delhi","zone_id":3,"latitude":"28.5973530000","longitude":"77.1718310000"}},{"subzone":{"id":76,"name":"Sarita Vihar","name_verbose":"Sarita Vihar","param":"subzone_id","city_id":"1","city_name":"New Delhi","zone_id":3,"latitude":"28.5334500000","longitude":"77.2933700000"}},{"subzone":{"id":77,"name":"Sarojini Nagar","name_verbose":"Sarojini Nagar","param":"subzone_id","city_id":"1","city_name":"New Delhi","zone_id":3,"latitude":"28.5755600000","longitude":"77.1960100000"}},{"subzone":{"id":317,"name":"Satyaniketan","name_verbose":"Satyaniketan","param":"subzone_id","city_id":"1","city_name":"New Delhi","zone_id":3,"latitude":"28.5873600000","longitude":"77.1681200000"}},{"subzone":{"id":345,"name":"Sector 1","name_verbose":"Sector 1, Noida","param":"subzone_id","city_id":"1","city_name":"Noida","zone_id":1,"latitude":"28.5901800000","longitude":"77.3117700000"}},{"subzone":{"id":346,"name":"Sector 2","name_verbose":"Sector 2, Noida","param":"subzone_id","city_id":"1","city_name":"Noida","zone_id":1,"latitude":"28.5850700000","longitude":"77.3149200000"}},{"subzone":{"id":347,"name":"Sector 3","name_verbose":"Sector 3, Noida","param":"subzone_id","city_id":"1","city_name":"Noida","zone_id":1,"latitude":"28.5806400000","longitude":"77.3184900000"}},{"subzone":{"id":540,"name":"Sector 3","name_verbose":"Sector 3, Faridabad","param":"subzone_id","city_id":"1","city_name":"Faridabad","zone_id":501,"latitude":"28.3507510000","longitude":"77.3352100000"}},{"subzone":{"id":496,"name":"Sector 4","name_verbose":"Sector 4, Gurgaon","param":"subzone_id","city_id":"1","city_name":"Gurgaon","zone_id":2,"latitude":"28.4749100000","longitude":"77.0098200000"}},{"subzone":{"id":700,"name":"Sector 5","name_verbose":"Sector 5","param":"subzone_id","city_id":"1","city_name":"Gurgaon","zone_id":2,"latitude":"28.4750290000","longitude":"77.0244100000"}},{"subzone":{"id":349,"name":"Sector 5","name_verbose":"Sector 5, Noida","param":"subzone_id","city_id":"1","city_name":"Noida","zone_id":1,"latitude":"28.5890200000","longitude":"77.3211300000"}},{"subzone":{"id":350,"name":"Sector 6","name_verbose":"Sector 6, Noida","param":"subzone_id","city_id":"1","city_name":"Noida","zone_id":1,"latitude":"28.5930200000","longitude":"77.3183300000"}},{"subzone":{"id":351,"name":"Sector 7","name_verbose":"Sector 7, Noida","param":"subzone_id","city_id":"1","city_name":"Noida","zone_id":1,"latitude":"28.5955900000","longitude":"77.3154600000"}},{"subzone":{"id":641,"name":"Sector 7","name_verbose":"Sector 7, Gurgaon","param":"subzone_id","city_id":"1","city_name":"Gurgaon","zone_id":2,"latitude":"28.4653670000","longitude":"77.0141790000"}},{"subzone":{"id":558,"name":"Sector 7","name_verbose":"Sector 7, Faridabad","param":"subzone_id","city_id":"1","city_name":"Faridabad","zone_id":501,"latitude":"28.3623360000","longitude":"77.3260490000"}},{"subzone":{"id":500,"name":"Sector 8","name_verbose":"Sector 8, Gurgaon","param":"subzone_id","city_id":"1","city_name":"Gurgaon","zone_id":2,"latitude":"28.4609800000","longitude":"77.0057350000"}},{"subzone":{"id":352,"name":"Sector 8","name_verbose":"Sector 8, Noida","param":"subzone_id","city_id":"1","city_name":"Noida","zone_id":1,"latitude":"28.5949000000","longitude":"77.3267000000"}},{"subzone":{"id":564,"name":"Sector 9","name_verbose":"Sector 9, Faridabad","param":"subzone_id","city_id":"1","city_name":"Faridabad","zone_id":501,"latitude":"28.3759340000","longitude":"77.3335250000"}},{"subzone":{"id":354,"name":"Sector 10","name_verbose":"Sector 10, Noida","param":"subzone_id","city_id":"1","city_name":"Noida","zone_id":1,"latitude":"28.5901400000","longitude":"77.3319500000"}},{"subzone":{"id":525,"name":"Sector 10","name_verbose":"Sector 10, Faridabad","param":"subzone_id","city_id":"1","city_name":"Faridabad","zone_id":501,"latitude":"28.3753630000","longitude":"77.3255970000"}},{"subzone":{"id":355,"name":"Sector 11","name_verbose":"Sector 11, Noida","param":"subzone_id","city_id":"1","city_name":"Noida","zone_id":1,"latitude":"28.5984500000","longitude":"77.3337500000"}},{"subzone":{"id":526,"name":"Sector 11","name_verbose":"Sector 11, Faridabad","param":"subzone_id","city_id":"1","city_name":"Faridabad","zone_id":501,"latitude":"28.3749620000","longitude":"77.3178940000"}},{"subzone":{"id":670,"name":"Sector 12","name_verbose":"Sector 12, Gurgaon","param":"subzone_id","city_id":"1","city_name":"Gurgaon","zone_id":2,"latitude":"28.4673710000","longitude":"77.0368910000"}},{"subzone":{"id":527,"name":"Sector 12","name_verbose":"Sector 12, Faridabad","param":"subzone_id","city_id":"1","city_name":"Faridabad","zone_id":501,"latitude":"28.3851850000","longitude":"77.3210370000"}},{"subzone":{"id":356,"name":"Sector 12","name_verbose":"Sector 12, Noida","param":"subzone_id","city_id":"1","city_name":"Noida","zone_id":1,"latitude":"28.5962550000","longitude":"77.3396190000"}},{"subzone":{"id":303,"name":"Sector 14","name_verbose":"Sector 14, Gurgaon","param":"subzone_id","city_id":"1","city_name":"Gurgaon","zone_id":2,"latitude":"28.4731940000","longitude":"77.0429700000"}},{"subzone":{"id":528,"name":"Sector 14","name_verbose":"Sector 14, Faridabad","param":"subzone_id","city_id":"1","city_name":"Faridabad","zone_id":501,"latitude":"28.3957320000","longitude":"77.3314010000"}},{"subzone":{"id":359,"name":"Sector 15","name_verbose":"Sector 15, Noida","param":"subzone_id","city_id":"1","city_name":"Noida","zone_id":1,"latitude":"28.5823200000","longitude":"77.3104900000"}},{"subzone":{"id":529,"name":"Sector 15","name_verbose":"Sector 15, Faridabad","param":"subzone_id","city_id":"1","city_name":"Faridabad","zone_id":501,"latitude":"28.3956000000","longitude":"77.3193990000"}},{"subzone":{"id":643,"name":"Sector 15","name_verbose":"Sector 15, Gurgaon","param":"subzone_id","city_id":"1","city_name":"Gurgaon","zone_id":2,"latitude":"28.4571830000","longitude":"77.0429810000"}},{"subzone":{"id":360,"name":"Sector 16","name_verbose":"Sector 16, Noida","param":"subzone_id","city_id":"1","city_name":"Noida","zone_id":1,"latitude":"28.5775400000","longitude":"77.3159270000"}},{"subzone":{"id":530,"name":"Sector 16","name_verbose":"Sector 16, Faridabad","param":"subzone_id","city_id":"1","city_name":"Faridabad","zone_id":501,"latitude":"28.4089870000","longitude":"77.3219920000"}},{"subzone":{"id":531,"name":"Sector 17","name_verbose":"Sector 17, Faridabad","param":"subzone_id","city_id":"1","city_name":"Faridabad","zone_id":501,"latitude":"28.4090630000","longitude":"77.3292450000"}},{"subzone":{"id":499,"name":"Sector 17","name_verbose":"Sector 17, Gurgaon","param":"subzone_id","city_id":"1","city_name":"Gurgaon","zone_id":2,"latitude":"28.4806920000","longitude":"77.0624260000"}},{"subzone":{"id":362,"name":"Sector 18","name_verbose":"Sector 18, Noida","param":"subzone_id","city_id":"1","city_name":"Noida","zone_id":1,"latitude":"28.5700500000","longitude":"77.3231700000"}},{"subzone":{"id":532,"name":"Sector 19","name_verbose":"Sector 19, Faridabad","param":"subzone_id","city_id":"1","city_name":"Faridabad","zone_id":501,"latitude":"28.4222310000","longitude":"77.3141060000"}},{"subzone":{"id":363,"name":"Sector 19","name_verbose":"Sector 19, Noida","param":"subzone_id","city_id":"1","city_name":"Noida","zone_id":1,"latitude":"28.5774700000","longitude":"77.3231800000"}},{"subzone":{"id":364,"name":"Sector 20","name_verbose":"Sector 20, Noida","param":"subzone_id","city_id":"1","city_name":"Noida","zone_id":1,"latitude":"28.5833900000","longitude":"77.3312200000"}},{"subzone":{"id":534,"name":"Sector 21","name_verbose":"Sector 21, Faridabad","param":"subzone_id","city_id":"1","city_name":"Faridabad","zone_id":501,"latitude":"28.4201600000","longitude":"77.3006520000"}},{"subzone":{"id":365,"name":"Sector 21","name_verbose":"Sector 21, Noida","param":"subzone_id","city_id":"1","city_name":"Noida","zone_id":1,"latitude":"28.5868700000","longitude":"77.3359900000"}},{"subzone":{"id":691,"name":"Sector 21","name_verbose":"Sector 21, Gurgaon","param":"subzone_id","city_id":"1","city_name":"Gurgaon","zone_id":2,"latitude":"28.5092670000","longitude":"77.0720300000"}},{"subzone":{"id":314,"name":"Sector 22","name_verbose":"Sector 22, Gurgaon","param":"subzone_id","city_id":"1","city_name":"Gurgaon","zone_id":2,"latitude":"28.5059650000","longitude":"77.0651100000"}},{"subzone":{"id":366,"name":"Sector 22","name_verbose":"Sector 22, Noida","param":"subzone_id","city_id":"1","city_name":"Noida","zone_id":1,"latitude":"28.5979400000","longitude":"77.3496600000"}},{"subzone":{"id":644,"name":"Sector 23","name_verbose":"Sector 23, Gurgaon","param":"subzone_id","city_id":"1","city_name":"Gurgaon","zone_id":2,"latitude":"28.5106720000","longitude":"77.0523120000"}},{"subzone":{"id":367,"name":"Sector 23","name_verbose":"Sector 23, Noida","param":"subzone_id","city_id":"1","city_name":"Noida","zone_id":1,"latitude":"28.5926100000","longitude":"77.3532000000"}},{"subzone":{"id":369,"name":"Sector 25","name_verbose":"Sector 25, Noida","param":"subzone_id","city_id":"1","city_name":"Noida","zone_id":1,"latitude":"28.5829500000","longitude":"77.3397800000"}},{"subzone":{"id":370,"name":"Sector 26","name_verbose":"Sector 26, Noida","param":"subzone_id","city_id":"1","city_name":"Noida","zone_id":1,"latitude":"28.5793800000","longitude":"77.3349800000"}},{"subzone":{"id":371,"name":"Sector 27","name_verbose":"Sector 27, Noida","param":"subzone_id","city_id":"1","city_name":"Noida","zone_id":1,"latitude":"28.5736400000","longitude":"77.3268400000"}},{"subzone":{"id":538,"name":"Sector 28","name_verbose":"Sector 28, Faridabad","param":"subzone_id","city_id":"1","city_name":"Faridabad","zone_id":501,"latitude":"28.4335060000","longitude":"77.3142350000"}},{"subzone":{"id":372,"name":"Sector 28","name_verbose":"Sector 28, Noida","param":"subzone_id","city_id":"1","city_name":"Noida","zone_id":1,"latitude":"28.5704300000","longitude":"77.3300900000"}},{"subzone":{"id":486,"name":"Sector 29","name_verbose":"Sector 29, Gurgaon","param":"subzone_id","city_id":"1","city_name":"Gurgaon","zone_id":2,"latitude":"28.4681100000","longitude":"77.0677100000"}},{"subzone":{"id":373,"name":"Sector 29","name_verbose":"Sector 29, Noida","param":"subzone_id","city_id":"1","city_name":"Noida","zone_id":1,"latitude":"28.5692100000","longitude":"77.3358800000"}},{"subzone":{"id":539,"name":"Sector 29","name_verbose":"Sector 29, Faridabad","param":"subzone_id","city_id":"1","city_name":"Faridabad","zone_id":501,"latitude":"28.4337940000","longitude":"77.3224530000"}},{"subzone":{"id":541,"name":"Sector 30","name_verbose":"Sector 30, Faridabad","param":"subzone_id","city_id":"1","city_name":"Faridabad","zone_id":501,"latitude":"28.4433320000","longitude":"77.3205010000"}},{"subzone":{"id":374,"name":"Sector 30","name_verbose":"Sector 30, Noida","param":"subzone_id","city_id":"1","city_name":"Noida","zone_id":1,"latitude":"28.5734400000","longitude":"77.3389100000"}},{"subzone":{"id":698,"name":"Sector 30","name_verbose":"Sector 30","param":"subzone_id","city_id":"1","city_name":"Gurgaon","zone_id":2,"latitude":"28.4627680000","longitude":"77.0584680000"}},{"subzone":{"id":375,"name":"Sector 31","name_verbose":"Sector 31, Noida","param":"subzone_id","city_id":"1","city_name":"Noida","zone_id":1,"latitude":"28.5771100000","longitude":"77.3437400000"}},{"subzone":{"id":489,"name":"Sector 31","name_verbose":"Sector 31, Gurgaon","param":"subzone_id","city_id":"1","city_name":"Gurgaon","zone_id":2,"latitude":"28.4536050000","longitude":"77.0536850000"}},{"subzone":{"id":542,"name":"Sector 31","name_verbose":"Sector 31, Faridabad","param":"subzone_id","city_id":"1","city_name":"Faridabad","zone_id":501,"latitude":"28.4459310000","longitude":"77.3126580000"}},{"subzone":{"id":645,"name":"Sector 33","name_verbose":"Sector 33, Gurgaon","param":"subzone_id","city_id":"1","city_name":"Gurgaon","zone_id":2,"latitude":"28.4381290000","longitude":"77.0250610000"}},{"subzone":{"id":377,"name":"Sector 33","name_verbose":"Sector 33, Noida","param":"subzone_id","city_id":"1","city_name":"Noida","zone_id":1,"latitude":"28.5885800000","longitude":"77.3559800000"}},{"subzone":{"id":638,"name":"Sector 34","name_verbose":"Sector 34, Faridabad","param":"subzone_id","city_id":"1","city_name":"Faridabad","zone_id":501,"latitude":"28.4711280000","longitude":"77.3138180000"}},{"subzone":{"id":378,"name":"Sector 34","name_verbose":"Sector 34, Noida","param":"subzone_id","city_id":"1","city_name":"Noida","zone_id":1,"latitude":"28.5838100000","longitude":"77.3605700000"}},{"subzone":{"id":543,"name":"Sector 37","name_verbose":"Sector 37, Faridabad","param":"subzone_id","city_id":"1","city_name":"Faridabad","zone_id":501,"latitude":"28.4808710000","longitude":"77.3099110000"}},{"subzone":{"id":381,"name":"Sector 37","name_verbose":"Sector 37, Noida","param":"subzone_id","city_id":"1","city_name":"Noida","zone_id":1,"latitude":"28.5651800000","longitude":"77.3429400000"}},{"subzone":{"id":649,"name":"Sector 37","name_verbose":"Sector 37, Gurgaon","param":"subzone_id","city_id":"1","city_name":"Gurgaon","zone_id":2,"latitude":"28.4456010000","longitude":"77.9941190000"}},{"subzone":{"id":382,"name":"Sector 38","name_verbose":"Sector 38, Noida","param":"subzone_id","city_id":"1","city_name":"Noida","zone_id":1,"latitude":"28.4805370000","longitude":"77.2965000000"}},{"subzone":{"id":315,"name":"Sector 39","name_verbose":"Sector 39, Gurgaon","param":"subzone_id","city_id":"1","city_name":"Gurgaon","zone_id":2,"latitude":"28.4418600000","longitude":"77.0499400000"}},{"subzone":{"id":383,"name":"Sector 39","name_verbose":"Sector 39, Noida","param":"subzone_id","city_id":"1","city_name":"Noida","zone_id":1,"latitude":"28.5702800000","longitude":"77.3536500000"}},{"subzone":{"id":384,"name":"Sector 40","name_verbose":"Sector 40, Noida","param":"subzone_id","city_id":"1","city_name":"Noida","zone_id":1,"latitude":"28.5648500000","longitude":"77.3545700000"}},{"subzone":{"id":544,"name":"Sector 41","name_verbose":"Sector 41, Faridabad","param":"subzone_id","city_id":"1","city_name":"Faridabad","zone_id":501,"latitude":"28.4646220000","longitude":"77.2886040000"}},{"subzone":{"id":385,"name":"Sector 41","name_verbose":"Sector 41, Noida","param":"subzone_id","city_id":"1","city_name":"Noida","zone_id":1,"latitude":"28.5656000000","longitude":"77.3611800000"}},{"subzone":{"id":545,"name":"Sector 42","name_verbose":"Sector 42, Faridabad","param":"subzone_id","city_id":"1","city_name":"Faridabad","zone_id":501,"latitude":"28.4646500000","longitude":"77.2966180000"}},{"subzone":{"id":640,"name":"Sector 43","name_verbose":"Sector 43, Gurgaon","param":"subzone_id","city_id":"1","city_name":"Gurgaon","zone_id":2,"latitude":"28.4512940000","longitude":"77.0879400000"}},{"subzone":{"id":546,"name":"Sector 43","name_verbose":"Sector 43, Faridabad","param":"subzone_id","city_id":"1","city_name":"Faridabad","zone_id":501,"latitude":"28.4561800000","longitude":"77.2917900000"}},{"subzone":{"id":650,"name":"Sector 44","name_verbose":"Sector 44, Gurgaon","param":"subzone_id","city_id":"1","city_name":"Gurgaon","zone_id":2,"latitude":"28.4519680000","longitude":"77.0729010000"}},{"subzone":{"id":388,"name":"Sector 44","name_verbose":"Sector 44, Noida","param":"subzone_id","city_id":"1","city_name":"Noida","zone_id":1,"latitude":"28.5558400000","longitude":"77.3337100000"}},{"subzone":{"id":495,"name":"Sector 45","name_verbose":"Sector 45, Gurgaon","param":"subzone_id","city_id":"1","city_name":"Gurgaon","zone_id":2,"latitude":"28.4423365000","longitude":"77.0667744000"}},{"subzone":{"id":548,"name":"Sector 46","name_verbose":"Sector 46, Faridabad","param":"subzone_id","city_id":"1","city_name":"Faridabad","zone_id":501,"latitude":"28.4392090000","longitude":"77.2999980000"}},{"subzone":{"id":391,"name":"Sector 47","name_verbose":"Sector 47, Noida","param":"subzone_id","city_id":"1","city_name":"Noida","zone_id":1,"latitude":"28.5497400000","longitude":"77.3702300000"}},{"subzone":{"id":392,"name":"Sector 48","name_verbose":"Sector 48, Noida","param":"subzone_id","city_id":"1","city_name":"Noida","zone_id":1,"latitude":"28.5563200000","longitude":"77.3686900000"}},{"subzone":{"id":393,"name":"Sector 49","name_verbose":"Sector 49, Noida","param":"subzone_id","city_id":"1","city_name":"Noida","zone_id":1,"latitude":"28.5640000000","longitude":"77.3678700000"}},{"subzone":{"id":551,"name":"Sector 49","name_verbose":"Sector 49, Faridabad","param":"subzone_id","city_id":"1","city_name":"Faridabad","zone_id":501,"latitude":"28.3919290000","longitude":"77.2695170000"}},{"subzone":{"id":394,"name":"Sector 50","name_verbose":"Sector 50, Noida","param":"subzone_id","city_id":"1","city_name":"Noida","zone_id":1,"latitude":"28.5728000000","longitude":"77.3706200000"}},{"subzone":{"id":651,"name":"Sector 50","name_verbose":"Sector 50, Gurgaon","param":"subzone_id","city_id":"1","city_name":"Gurgaon","zone_id":2,"latitude":"28.4225800000","longitude":"77.0650580000"}},{"subzone":{"id":395,"name":"Sector 51","name_verbose":"Sector 51, Noida","param":"subzone_id","city_id":"1","city_name":"Noida","zone_id":1,"latitude":"28.5805820000","longitude":"77.3673530000"}},{"subzone":{"id":396,"name":"Sector 52","name_verbose":"Sector 52, Noida","param":"subzone_id","city_id":"1","city_name":"Noida","zone_id":1,"latitude":"28.5874550000","longitude":"77.3700460000"}},{"subzone":{"id":397,"name":"Sector 53","name_verbose":"Sector 53, Noida","param":"subzone_id","city_id":"1","city_name":"Noida","zone_id":1,"latitude":"28.5914800000","longitude":"77.3622000000"}},{"subzone":{"id":313,"name":"Sector 53","name_verbose":"Sector 53, Gurgaon","param":"subzone_id","city_id":"1","city_name":"Gurgaon","zone_id":2,"latitude":"28.4424100000","longitude":"77.1002250000"}},{"subzone":{"id":642,"name":"Sector 54","name_verbose":"Sector 54, Gurgaon","param":"subzone_id","city_id":"1","city_name":"Gurgaon","zone_id":2,"latitude":"28.4345060000","longitude":"77.1127580000"}},{"subzone":{"id":399,"name":"Sector 55","name_verbose":"Sector 55, Noida","param":"subzone_id","city_id":"1","city_name":"Noida","zone_id":1,"latitude":"28.6043300000","longitude":"77.3485600000"}},{"subzone":{"id":306,"name":"Sector 56","name_verbose":"Sector 56, Gurgaon","param":"subzone_id","city_id":"1","city_name":"Gurgaon","zone_id":2,"latitude":"28.4261600000","longitude":"77.0981700000"}},{"subzone":{"id":400,"name":"Sector 56","name_verbose":"Sector 56, Noida","param":"subzone_id","city_id":"1","city_name":"Noida","zone_id":1,"latitude":"28.6031900000","longitude":"77.3430900000"}},{"subzone":{"id":692,"name":"Sector 57","name_verbose":"Sector 57, Gurgaon","param":"subzone_id","city_id":"1","city_name":"Gurgaon","zone_id":2,"latitude":"28.4235020000","longitude":"77.0766150000"}},{"subzone":{"id":402,"name":"Sector 58","name_verbose":"Sector 58, Noida","param":"subzone_id","city_id":"1","city_name":"Noida","zone_id":1,"latitude":"28.6062200000","longitude":"77.3588900000"}},{"subzone":{"id":403,"name":"Sector 59","name_verbose":"Sector 59, Noida","param":"subzone_id","city_id":"1","city_name":"Noida","zone_id":1,"latitude":"28.6076700000","longitude":"77.3676100000"}},{"subzone":{"id":404,"name":"Sector 60","name_verbose":"Sector 60, Noida","param":"subzone_id","city_id":"1","city_name":"Noida","zone_id":1,"latitude":"28.6029700000","longitude":"77.3671000000"}},{"subzone":{"id":405,"name":"Sector 61","name_verbose":"Sector 61, Noida","param":"subzone_id","city_id":"1","city_name":"Noida","zone_id":1,"latitude":"28.5961900000","longitude":"77.3681600000"}},{"subzone":{"id":406,"name":"Sector 62","name_verbose":"Sector 62, Noida","param":"subzone_id","city_id":"1","city_name":"Noida","zone_id":1,"latitude":"28.6217400000","longitude":"77.3635800000"}},{"subzone":{"id":407,"name":"Sector 63","name_verbose":"Sector 63, Noida","param":"subzone_id","city_id":"1","city_name":"Noida","zone_id":1,"latitude":"28.6232900000","longitude":"77.3830700000"}},{"subzone":{"id":409,"name":"Sector 65","name_verbose":"Sector 65, Noida","param":"subzone_id","city_id":"1","city_name":"Noida","zone_id":1,"latitude":"28.6113600000","longitude":"77.3871400000"}},{"subzone":{"id":415,"name":"Sector 71","name_verbose":"Sector 71, Noida","param":"subzone_id","city_id":"1","city_name":"Noida","zone_id":1,"latitude":"28.5954900000","longitude":"77.3760300000"}},{"subzone":{"id":416,"name":"Sector 72","name_verbose":"Sector 72, Noida","param":"subzone_id","city_id":"1","city_name":"Noida","zone_id":1,"latitude":"28.5850000000","longitude":"77.3792100000"}},{"subzone":{"id":561,"name":"Sector 81","name_verbose":"Sector 81, Faridabad","param":"subzone_id","city_id":"1","city_name":"Faridabad","zone_id":501,"latitude":"28.3959640000","longitude":"77.3523760000"}},{"subzone":{"id":427,"name":"Sector 83","name_verbose":"Sector 83, Noida","param":"subzone_id","city_id":"1","city_name":"Noida","zone_id":1,"latitude":"28.5252700000","longitude":"77.3982700000"}},{"subzone":{"id":699,"name":"Sector 83","name_verbose":"Sector 83, Gurgaon","param":"subzone_id","city_id":"1","city_name":"Gurgaon","zone_id":2,"latitude":"28.3963080000","longitude":"76.9729550000"}},{"subzone":{"id":562,"name":"Sector 86","name_verbose":"Sector 86, Faridabad","param":"subzone_id","city_id":"1","city_name":"Faridabad","zone_id":501,"latitude":"28.4027970000","longitude":"77.3428610000"}},{"subzone":{"id":437,"name":"Sector 93","name_verbose":"Sector 93, Noida","param":"subzone_id","city_id":"1","city_name":"Noida","zone_id":1,"latitude":"28.5227500000","longitude":"77.3861600000"}},{"subzone":{"id":668,"name":"Sector 110","name_verbose":"Sector 110, Noida","param":"subzone_id","city_id":"1","city_name":"Noida","zone_id":1,"latitude":"28.5331640000","longitude":"77.3867510000"}},{"subzone":{"id":669,"name":"Sector 125","name_verbose":"Sector 125, Noida","param":"subzone_id","city_id":"1","city_name":"Noida","zone_id":1,"latitude":"28.5435510000","longitude":"77.3325060000"}},{"subzone":{"id":667,"name":"Sector 127","name_verbose":"Sector 127, Noida","param":"subzone_id","city_id":"1","city_name":"Noida","zone_id":1,"latitude":"28.5341940000","longitude":"77.3464090000"}},{"subzone":{"id":417,"name":"Sector 132","name_verbose":"Sector 132, Noida","param":"subzone_id","city_id":"1","city_name":"Noida","zone_id":1,"latitude":"28.5138020000","longitude":"77.3769420000"}},{"subzone":{"id":246,"name":"Shahdara","name_verbose":"Shahdara","param":"subzone_id","city_id":"1","city_name":"New Delhi","zone_id":6,"latitude":"28.6844190000","longitude":"77.2809690000"}},{"subzone":{"id":689,"name":"Shahpur Jat","name_verbose":"Shahpur Jat","param":"subzone_id","city_id":"1","city_name":"New Delhi","zone_id":3,"latitude":"28.5503550000","longitude":"77.2110610000"}},{"subzone":{"id":247,"name":"Shakarpur","name_verbose":"Shakarpur","param":"subzone_id","city_id":"1","city_name":"New Delhi","zone_id":6,"latitude":"28.6283300000","longitude":"77.2806700000"}},{"subzone":{"id":255,"name":"Shalimar Bagh","name_verbose":"Shalimar Bagh","param":"subzone_id","city_id":"1","city_name":"New Delhi","zone_id":5,"latitude":"28.7104000000","longitude":"77.1652200000"}},{"subzone":{"id":626,"name":"Shalimar Garden","name_verbose":"Shalimar Garden","param":"subzone_id","city_id":"1","city_name":"Ghaziabad","zone_id":600,"latitude":"28.6904210000","longitude":"77.3434740000"}},{"subzone":{"id":627,"name":"Shastri Nagar","name_verbose":"Shastri Nagar","param":"subzone_id","city_id":"1","city_name":"Ghaziabad","zone_id":600,"latitude":"28.6706710000","longitude":"77.4605230000"}},{"subzone":{"id":248,"name":"Shastri Park","name_verbose":"Shastri Park","param":"subzone_id","city_id":"1","city_name":"New Delhi","zone_id":6,"latitude":"28.6548400000","longitude":"77.2806700000"}},{"subzone":{"id":83,"name":"Sheikh Sarai","name_verbose":"Sheikh Sarai","param":"subzone_id","city_id":"1","city_name":"New Delhi","zone_id":3,"latitude":"28.5365950000","longitude":"77.2291768000"}},{"subzone":{"id":339,"name":"Sikandarpur","name_verbose":"Sikandarpur","param":"subzone_id","city_id":"1","city_name":"Gurgaon","zone_id":2,"latitude":"28.4816700000","longitude":"77.0930800000"}},{"subzone":{"id":84,"name":"Siri Fort Road","name_verbose":"Siri Fort Road","param":"subzone_id","city_id":"1","city_name":"New Delhi","zone_id":3,"latitude":"28.5553020000","longitude":"77.2212110000"}},{"subzone":{"id":311,"name":"Sohna Road","name_verbose":"Sohna Road","param":"subzone_id","city_id":"1","city_name":"Gurgaon","zone_id":2,"latitude":"28.4150660000","longitude":"77.0410710000"}},{"subzone":{"id":318,"name":"South City 1","name_verbose":"South City 1","param":"subzone_id","city_id":"1","city_name":"Gurgaon","zone_id":2,"latitude":"28.4578950000","longitude":"77.0649650000"}},{"subzone":{"id":683,"name":"South City 2","name_verbose":"South City 2","param":"subzone_id","city_id":"1","city_name":"Gurgaon","zone_id":2,"latitude":"28.4179430000","longitude":"77.0516220000"}},{"subzone":{"id":85,"name":"South Extension 1","name_verbose":"South Extension 1","param":"subzone_id","city_id":"1","city_name":"New Delhi","zone_id":3,"latitude":"28.5705500000","longitude":"77.2204000000"}},{"subzone":{"id":494,"name":"South Extension 2","name_verbose":"South Extension 2","param":"subzone_id","city_id":"1","city_name":"New Delhi","zone_id":3,"latitude":"28.5660500000","longitude":"77.2206300000"}},{"subzone":{"id":677,"name":"South Patel Nagar","name_verbose":"South Patel Nagar","param":"subzone_id","city_id":"1","city_name":"New Delhi","zone_id":7,"latitude":"28.6452740000","longitude":"77.1650360000"}},{"subzone":{"id":87,"name":"Srinivas Puri","name_verbose":"Srinivas Puri","param":"subzone_id","city_id":"1","city_name":"New Delhi","zone_id":3,"latitude":"28.5653000000","longitude":"77.2546300000"}},{"subzone":{"id":291,"name":"Subhash Nagar","name_verbose":"Subhash Nagar","param":"subzone_id","city_id":"1","city_name":"New Delhi","zone_id":7,"latitude":"28.6363800000","longitude":"77.1153800000"}},{"subzone":{"id":128,"name":"Sundar Nagar","name_verbose":"Sundar Nagar","param":"subzone_id","city_id":"1","city_name":"New Delhi","zone_id":4,"latitude":"28.6020190000","longitude":"77.2424880000"}},{"subzone":{"id":567,"name":"Suraj Kund","name_verbose":"Suraj Kund, Faridabad","param":"subzone_id","city_id":"1","city_name":"Faridabad","zone_id":501,"latitude":"28.4884900000","longitude":"77.2883370000"}},{"subzone":{"id":90,"name":"Suraj Kund","name_verbose":"Suraj Kund, Delhi","param":"subzone_id","city_id":"1","city_name":"New Delhi","zone_id":3,"latitude":"28.4885960000","longitude":"77.2713970000"}},{"subzone":{"id":341,"name":"Surajpur","name_verbose":"Surajpur","param":"subzone_id","city_id":"1","city_name":"Noida","zone_id":1,"latitude":"28.5306130000","longitude":"77.4536160000"}},{"subzone":{"id":629,"name":"Surya Nagar","name_verbose":"Surya Nagar, Ghaziabad","param":"subzone_id","city_id":"1","city_name":"Ghaziabad","zone_id":600,"latitude":"28.6683360000","longitude":"77.3250820000"}},{"subzone":{"id":305,"name":"Sushant Lok","name_verbose":"Sushant Lok","param":"subzone_id","city_id":"1","city_name":"Gurgaon","zone_id":2,"latitude":"28.4677190000","longitude":"77.0796460000"}},{"subzone":{"id":292,"name":"Tagore Garden","name_verbose":"Tagore Garden","param":"subzone_id","city_id":"1","city_name":"New Delhi","zone_id":7,"latitude":"28.6457968000","longitude":"77.1109960000"}},{"subzone":{"id":342,"name":"Taj Express Highway","name_verbose":"Taj Express Highway","param":"subzone_id","city_id":"1","city_name":"Noida","zone_id":1,"latitude":"28.5255830000","longitude":"77.3651460000"}},{"subzone":{"id":569,"name":"Tigaon","name_verbose":"Tigaon","param":"subzone_id","city_id":"1","city_name":"Faridabad","zone_id":501,"latitude":"28.4021170000","longitude":"77.3482020000"}},{"subzone":{"id":129,"name":"Tilak Marg","name_verbose":"Tilak Marg","param":"subzone_id","city_id":"1","city_name":"New Delhi","zone_id":4,"latitude":"28.6182800000","longitude":"77.2359900000"}},{"subzone":{"id":293,"name":"Tilak Nagar","name_verbose":"Tilak Nagar","param":"subzone_id","city_id":"1","city_name":"New Delhi","zone_id":7,"latitude":"28.6397900000","longitude":"77.0947600000"}},{"subzone":{"id":250,"name":"Trilokpuri","name_verbose":"Trilokpuri","param":"subzone_id","city_id":"1","city_name":"New Delhi","zone_id":6,"latitude":"28.6069100000","longitude":"77.3083700000"}},{"subzone":{"id":91,"name":"Tughlakabad Institutional Area","name_verbose":"Tughlakabad Institutional Area","param":"subzone_id","city_id":"1","city_name":"New Delhi","zone_id":3,"latitude":"28.5896800000","longitude":"77.2264100000"}},{"subzone":{"id":92,"name":"Uday Park","name_verbose":"Uday Park","param":"subzone_id","city_id":"1","city_name":"New Delhi","zone_id":3,"latitude":"28.5605800000","longitude":"77.2194800000"}},{"subzone":{"id":304,"name":"Udyog Vihar","name_verbose":"Udyog Vihar","param":"subzone_id","city_id":"1","city_name":"Gurgaon","zone_id":2,"latitude":"28.5084720000","longitude":"77.0809890000"}},{"subzone":{"id":294,"name":"Uttam Nagar","name_verbose":"Uttam Nagar","param":"subzone_id","city_id":"1","city_name":"New Delhi","zone_id":7,"latitude":"28.6193100000","longitude":"77.0516140000"}},{"subzone":{"id":633,"name":"Vaishali","name_verbose":"Vaishali","param":"subzone_id","city_id":"1","city_name":"Ghaziabad","zone_id":600,"latitude":"28.6419430000","longitude":"77.3375520000"}},{"subzone":{"id":634,"name":"Vaishali Extension","name_verbose":"Vaishali Extension","param":"subzone_id","city_id":"1","city_name":"Ghaziabad","zone_id":600,"latitude":"28.6499220000","longitude":"77.3481700000"}},{"subzone":{"id":93,"name":"Vasant Kunj","name_verbose":"Vasant Kunj","param":"subzone_id","city_id":"1","city_name":"New Delhi","zone_id":3,"latitude":"28.5273010000","longitude":"77.1518330000"}},{"subzone":{"id":94,"name":"Vasant Vihar","name_verbose":"Vasant Vihar","param":"subzone_id","city_id":"1","city_name":"New Delhi","zone_id":3,"latitude":"28.5599700000","longitude":"77.1606800000"}},{"subzone":{"id":603,"name":"Vasundhara","name_verbose":"Vasundhara","param":"subzone_id","city_id":"1","city_name":"Ghaziabad","zone_id":600,"latitude":"28.6612190000","longitude":"77.3716880000"}},{"subzone":{"id":262,"name":"Vasundhara Enclave","name_verbose":"Vasundhara Enclave","param":"subzone_id","city_id":"1","city_name":"New Delhi","zone_id":6,"latitude":"28.6006900000","longitude":"77.3189200000"}},{"subzone":{"id":646,"name":"Vijay Nagar","name_verbose":"Vijay Nagar","param":"subzone_id","city_id":"1","city_name":"New Delhi","zone_id":5,"latitude":"28.6921220000","longitude":"77.2032770000"}},{"subzone":{"id":630,"name":"Vijay Nagar Colony","name_verbose":"Vijay Nagar Colony","param":"subzone_id","city_id":"1","city_name":"Ghaziabad","zone_id":600,"latitude":"28.6449880000","longitude":"77.4291090000"}},{"subzone":{"id":251,"name":"Vikas Marg","name_verbose":"Vikas Marg","param":"subzone_id","city_id":"1","city_name":"New Delhi","zone_id":6,"latitude":"28.6280770000","longitude":"77.2611290000"}},{"subzone":{"id":296,"name":"Vikaspuri","name_verbose":"Vikaspuri","param":"subzone_id","city_id":"1","city_name":"New Delhi","zone_id":7,"latitude":"28.6358060000","longitude":"77.0730500000"}},{"subzone":{"id":252,"name":"Vivek Vihar","name_verbose":"Vivek Vihar, Delhi","param":"subzone_id","city_id":"1","city_name":"New Delhi","zone_id":6,"latitude":"28.6691900000","longitude":"77.3191400000"}},{"subzone":{"id":631,"name":"Wazirabad","name_verbose":"Wazirabad","param":"subzone_id","city_id":"1","city_name":"Ghaziabad","zone_id":600,"latitude":"28.7314170000","longitude":"77.2244290000"}},{"subzone":{"id":229,"name":"Wazirpur","name_verbose":"Wazirpur","param":"subzone_id","city_id":"1","city_name":"New Delhi","zone_id":5,"latitude":"28.6953680000","longitude":"77.1600290000"}},{"subzone":{"id":676,"name":"West Patel Nagar","name_verbose":"West Patel Nagar","param":"subzone_id","city_id":"1","city_name":"New Delhi","zone_id":7,"latitude":"28.6493900000","longitude":"77.1630920000"}},{"subzone":{"id":96,"name":"Yusuf Sarai","name_verbose":"Yusuf Sarai","param":"subzone_id","city_id":"1","city_name":"New Delhi","zone_id":3,"latitude":"28.5609900000","longitude":"77.2084900000"}},{"subzone":{"id":97,"name":"Zakir Nagar","name_verbose":"Zakir Nagar","param":"subzone_id","city_id":"1","city_name":"New Delhi","zone_id":3,"latitude":"28.5690200000","longitude":"77.2798600000"}}],"has_more":0}